City_ID,City,Lat,Lng,Max Temp,Humidity,Cloudiness,Wind Speed,Country,Date
0,kapuskasing,49.4169,-82.4331,26.05,50,75,3.09,CA,1691532253
1,vorgashor,67.5833,63.95,9.05,75,100,2.97,RU,1691532408
2,blackmans bay,-43.0167,147.3167,2.63,94,39,2.98,AU,1691532352
3,hermanus,-34.4187,19.2345,11.17,82,0,5.32,ZA,1691532355
4,yellowknife,62.456,-114.3525,20.87,46,3,7.6,CA,1691532524
5,atafu village,-8.5421,-172.5159,28.66,69,90,5.4,TK,1691532524
6,bilibino,68.0546,166.4372,4.58,64,100,2.89,RU,1691532525
7,waitangi,-43.9535,-176.5597,9.9,93,100,0.45,NZ,1691532525
8,glace bay,46.1969,-59.957,18.83,86,100,4.02,CA,1691532526
9,nova sintra,14.8667,-24.7167,22.62,74,46,6.29,CV,1691532256
10,west island,-12.1568,96.8225,24.99,83,40,4.12,CC,1691532233
11,plastun,44.7561,136.2939,17.45,85,100,1.37,RU,1691532527
12,saipan,15.1355,145.701,29.39,100,40,2.57,MP,1691532373
13,desaguadero,-16.5656,-69.0417,11.54,45,63,3.79,PE,1691532528
14,gaspe,48.8334,-64.4819,16.02,98,100,4.38,CA,1691532425
15,ushuaia,-54.8,-68.3,3.81,75,40,1.03,AR,1691532110
16,uturoa,-16.7333,-151.4333,26.01,77,99,3.07,PF,1691532359
17,adamstown,-25.066,-130.1015,22.34,87,92,15.35,PN,1691531783
18,mutuali,-14.8706,37.0044,15.7,72,6,1.6,MZ,1691532530
19,olonkinbyen,70.9221,-8.7187,4.59,92,100,7.48,SJ,1691532345
20,puerto ayora,-0.7393,-90.3518,28.98,84,58,3.58,EC,1691532353
21,carutapera,-1.195,-46.02,25.72,83,57,3.75,BR,1691532324
22,punta arenas,-53.15,-70.9167,1.56,85,88,2.23,CL,1691532138
23,afaahiti,-17.75,-149.2833,23.93,88,98,6.56,PF,1691532345
24,las tablas,7.7667,-80.2833,30.1,99,100,1.63,PA,1691532532
25,queenstown,-31.8976,26.8753,9.68,84,79,1.98,ZA,1691532378
26,port mathurin,-19.6833,63.4167,22.44,65,14,9.9,MU,1691532344
27,grytviken,-54.2811,-36.5092,-3.43,80,31,3.76,GS,1691532300
28,san antonio de pale,-1.4014,5.6325,23.7,77,2,5.58,GQ,1691532278
29,iskateley,67.6803,53.1512,9.52,74,87,0.67,RU,1691532352
30,sao joao da barra,-21.6403,-41.0511,23.05,88,15,7.29,BR,1691532344
31,stanley,54.868,-1.6985,12.62,73,0,5.14,GB,1691532363
32,shimoda,34.6667,138.95,26.17,87,95,3.43,JP,1691532236
33,mount isa,-20.7333,139.5,7.87,87,6,0.51,AU,1691532246
34,sur,22.5667,59.5289,30.76,58,3,5.01,OM,1691532347
35,alofi,-19.0595,-169.9187,27.94,83,40,4.12,NU,1691532353
36,puerto natales,-51.7236,-72.4875,1.64,99,100,0.92,CL,1691532137
37,mhamid,29.82,-5.72,37.49,10,44,4.96,MA,1691532537
38,eyl,7.9803,49.8164,24.59,79,15,11.13,SO,1691532313
39,sumbe,-11.2061,13.8437,19.56,93,1,2.74,AO,1691532538
40,gadzhiyevo,69.2551,33.3362,17.19,81,1,5.03,RU,1691532355
41,amahai,-3.3333,128.9167,24.23,87,40,3.87,ID,1691532539
42,franceville,-1.6333,13.5836,26.55,57,99,1.48,GA,1691532539
43,port-aux-francais,-49.35,70.2167,1.05,69,94,9.67,TF,1691532343
44,mount gambier,-37.8333,140.7667,6.6,69,0,4.83,AU,1691532418
45,san luis de la loma,17.2706,-100.8939,31.39,74,26,4.37,MX,1691532368
46,hadibu,12.65,54.0333,25.66,80,97,8.28,YE,1691532264
47,bethel,41.3712,-73.414,25.83,68,75,6.69,US,1691532250
48,prado,-17.3411,-39.2208,22.46,87,0,3.04,BR,1691532419
49,urucara,-2.5364,-57.76,31.71,41,87,0.6,BR,1691532322
50,anadyr,64.75,177.4833,10.28,81,75,7.6,RU,1691532299
51,tralee,52.2704,-9.7026,15.79,96,100,1.59,IE,1691532426
52,ekenas,59.9736,23.4339,16.61,83,8,7.72,FI,1691532543
53,erenhot,43.6475,111.9767,20.11,58,1,5.28,CN,1691532544
54,petropavlovsk-kamchatsky,53.0452,158.6483,13.33,77,20,3.0,RU,1691532248
55,tsiombe,-25.3,45.4833,19.99,86,1,4.76,MG,1691532260
56,ust-nera,64.5667,143.2,14.53,55,84,0.96,RU,1691532376
57,kourou,5.1552,-52.6478,28.03,84,80,3.94,GF,1691532428
58,broome,42.2506,-75.833,18.83,95,100,5.14,US,1691532376
59,genhe,50.7833,121.5167,13.95,72,99,1.46,CN,1691532546
60,ilulissat,69.2167,-51.1,10.01,53,20,0.51,GL,1691532347
61,thompson,55.7435,-97.8558,14.09,82,100,4.63,CA,1691532306
62,patacamaya,-17.2333,-67.9167,13.67,24,31,0.86,BO,1691532547
63,chonchi,-42.6128,-73.8092,10.07,98,100,2.36,CL,1691532364
64,aguilar de campoo,42.7945,-4.2589,17.8,68,0,2.24,ES,1691532548
65,itoman,26.1247,127.6694,28.01,87,75,5.14,JP,1691532425
66,yanam,16.7333,82.2167,26.23,80,100,1.67,IN,1691532407
67,surab,28.4914,66.2585,23.93,21,1,2.79,PK,1691532549
68,loango,-4.6719,11.8312,21.01,87,0,2.87,CG,1691532550
69,saldanha,-33.0117,17.9442,10.03,85,0,5.69,ZA,1691532132
70,ribeira grande,38.5167,-28.7,24.32,88,75,9.39,PT,1691532378
71,iqaluit,63.7506,-68.5145,5.85,86,75,4.12,CA,1691532124
72,portland,45.5234,-122.6762,31.46,45,20,4.12,US,1691532425
73,coruripe,-10.1256,-36.1756,23.51,84,56,3.42,BR,1691532352
74,san mariano,7.5,126.0,23.47,87,99,1.38,PH,1691532553
75,khurai,24.0436,78.3319,24.78,78,100,4.75,IN,1691532553
76,igarka,67.4667,86.5833,15.02,63,89,3.11,RU,1691532554
77,svay rieng,11.0879,105.7993,26.03,80,74,3.2,KH,1691532554
78,edinburgh of the seven seas,-37.0676,-12.3116,12.18,90,100,12.77,SH,1691532235
79,robore,-18.3333,-59.75,29.03,36,3,1.44,BO,1691532555
80,crane,31.3974,-102.3501,39.39,18,96,2.76,US,1691532382
81,meadow lake,34.8014,-106.5436,30.93,18,74,6.08,US,1691532556
82,valley city,46.9233,-98.0032,27.29,47,0,5.66,US,1691532409
83,tiksi,71.6872,128.8694,15.04,53,9,1.47,RU,1691532363
84,morehead city,34.7229,-76.726,33.33,79,0,5.66,US,1691532557
85,klyuchi,52.2667,79.1667,18.37,46,42,0.72,RU,1691532361
86,enewetak,11.3474,162.3373,28.67,76,98,7.08,MH,1691532236
87,hamilton,39.1834,-84.5333,29.03,53,40,4.12,US,1691532259
88,atar,20.5169,-13.0499,34.59,18,1,3.22,MR,1691532340
89,praia,14.9215,-23.5087,26.3,69,40,6.69,CV,1691532560
90,papatowai,-46.5619,169.4708,5.45,86,100,7.76,NZ,1691532331
91,invercargill,-46.4,168.35,5.57,93,94,3.58,NZ,1691532356
92,castillos,-34.1667,-53.8333,9.26,87,36,2.78,UY,1691532561
93,isafjordur,66.0755,-23.124,11.02,71,0,0.0,IS,1691532348
94,sola,-13.8833,167.55,24.64,84,100,10.23,VU,1691532562
95,emmett,43.8735,-116.4993,27.98,38,17,2.5,US,1691532307
96,namtsy,62.7161,129.6658,15.65,60,50,1.62,RU,1691532534
97,pallasovka,50.05,46.8833,26.34,34,25,3.25,RU,1691532563
98,ngorongoro,-3.2397,35.4875,9.72,88,92,3.15,TZ,1691532564
99,ancud,-41.8697,-73.8203,10.05,95,100,4.94,CL,1691532415
100,khandyga,62.6667,135.6,15.25,59,89,0.16,RU,1691532409
101,sinabang,2.4803,96.3801,25.98,80,99,0.42,ID,1691532565
102,panaba,21.2833,-88.2667,34.85,47,9,9.72,MX,1691532566
103,urumqi,43.801,87.6005,17.53,94,0,0.0,CN,1691532566
104,weno,7.4515,151.8468,29.97,79,100,0.0,FM,1691532106
105,arteche,12.2645,125.4048,26.67,84,91,2.87,PH,1691532567
106,albany,42.6001,-73.9662,22.36,84,82,1.34,US,1691532075
107,nar'yan-mar,67.6713,53.087,9.6,74,84,0.72,RU,1691532350
108,queensbury,53.7667,-1.9167,12.64,90,77,3.45,GB,1691532320
109,baicheng,45.6167,122.8167,16.64,91,30,3.2,CN,1691532569
110,bojonegoro,-7.1502,111.8817,21.35,82,1,2.34,ID,1691532569
111,rikaze,29.25,88.8833,14.0,63,97,1.24,CN,1691532332
112,vilyuysk,63.7553,121.6247,15.24,51,12,3.08,RU,1691532375
113,mount pleasant,32.7941,-79.8626,34.44,62,0,4.12,US,1691532362
114,halifax,44.6453,-63.5724,20.94,91,100,3.6,CA,1691532313
115,olinda,-8.0089,-34.8553,25.85,78,40,3.09,BR,1691532413
116,refahiye,39.9008,38.7667,19.31,78,0,2.17,TR,1691532571
117,college,64.8569,-147.8028,20.67,88,100,3.09,US,1691532349
118,luderitz,-26.6481,15.1594,16.26,66,0,7.01,NA,1691532363
119,ola,59.5833,151.2833,11.82,57,10,1.87,RU,1691532304
120,st. john's,47.5649,-52.7093,15.64,84,75,4.02,CA,1691532353
121,brookings,44.3114,-96.7984,26.77,53,0,3.6,US,1691532573
122,margate,51.3813,1.3862,16.61,91,100,2.24,GB,1691532114
123,am timan,11.0297,20.2827,21.95,94,68,1.86,TD,1691532574
124,avarua,-21.2078,-159.775,23.03,60,75,6.17,CK,1691532349
125,knyaze-volkonskoye,48.4642,135.4567,20.72,87,97,1.37,RU,1691532575
126,serhiyivka,46.0272,30.3768,15.92,83,3,5.72,UA,1691532576
127,rosetta,31.4044,30.4164,25.87,71,0,4.11,EG,1691532576
128,udachny,66.4167,112.4,16.36,58,10,1.81,RU,1691532234
129,kununurra,-15.7667,128.7333,12.99,76,16,1.54,AU,1691532353
130,bredasdorp,-34.5322,20.0403,9.18,88,0,1.47,ZA,1691532263
131,port elizabeth,-33.918,25.5701,15.16,94,75,3.6,ZA,1691532388
132,blythe,33.6103,-114.5964,42.25,20,75,8.07,US,1691532578
133,polyarnyy,69.1989,33.4478,17.02,81,2,5.11,RU,1691532345
134,belmonte,-15.8631,-38.8828,22.81,83,2,3.44,BR,1691532579
135,wailua homesteads,22.0669,-159.378,33.24,75,100,8.23,US,1691532343
136,minas de marcona,-15.2119,-75.1103,15.56,71,3,5.97,PE,1691532412
137,shizunai-furukawacho,42.3339,142.3669,23.39,96,100,6.65,JP,1691532580
138,tura,25.5198,90.2201,23.3,98,100,2.31,IN,1691532369
139,utrik,11.2278,169.8474,28.43,73,59,6.17,MH,1691532398
140,lebu,-37.6167,-73.65,12.3,70,100,3.78,CL,1691532546
141,dunda,-8.1167,34.25,16.0,67,0,1.36,TZ,1691532582
142,louga,58.7372,29.8453,14.04,79,45,2.05,RU,1691532582
143,lompoc,34.6391,-120.4579,24.88,69,10,2.68,US,1691532350
144,port lincoln,-34.7333,135.8667,12.4,44,0,8.99,AU,1691532352
145,dudinka,69.4058,86.1778,13.68,64,71,1.04,RU,1691532358
146,cromwell,41.5951,-72.6454,27.04,72,100,4.63,US,1691532584
147,pitimbu,-7.4706,-34.8086,25.33,84,19,4.78,BR,1691532585
148,mboursou lere,9.7639,14.1539,23.81,85,93,1.35,TD,1691532585
149,tahe,52.3333,124.7333,13.85,96,100,0.91,CN,1691532585
150,farmington,36.7281,-108.2187,32.89,73,40,4.63,US,1691532361
151,ghat,24.9647,10.1728,34.62,22,55,7.64,LY,1691532586
152,porto velho,-8.7619,-63.9039,24.03,94,20,0.0,BR,1691532587
153,al muwayh,22.4333,41.7583,28.37,17,22,4.94,SA,1691532587
154,la passe,45.5549,-0.8967,18.88,64,17,3.73,FR,1691532588
155,karratha,-20.7377,116.8463,20.55,38,0,3.86,AU,1691532405
156,christchurch,-43.5333,172.6333,6.85,69,17,2.06,NZ,1691532136
157,oriximina,-1.7656,-55.8661,31.07,45,95,1.79,BR,1691532418
158,akureyri,65.6835,-18.0878,11.96,62,0,4.63,IS,1691532099
159,beltran,-27.8291,-64.061,15.73,46,52,3.11,AR,1691532590
160,carnarvon,-24.8667,113.6333,17.1,84,5,6.54,AU,1691532365
161,nova olinda do norte,-3.8881,-59.0942,32.41,37,92,0.64,BR,1691532405
162,sitka,57.0531,-135.33,15.94,77,100,1.54,US,1691532380
163,porto novo,6.4965,2.6036,24.68,88,22,3.61,BJ,1691532344
164,lihue,21.9789,-159.3672,33.58,67,100,8.23,US,1691532420
165,arenapolis,-14.4503,-56.8461,32.4,27,32,1.09,BR,1691532593
166,margaret river,-33.95,115.0667,10.91,64,5,3.24,AU,1691532110
167,mbandaka,0.0487,18.2603,21.7,92,49,1.2,CD,1691532593
168,lautoka,-17.6167,177.4667,26.92,61,20,2.57,FJ,1691532594
169,athens,37.9795,23.7162,27.59,60,75,4.92,GR,1691532002
170,georgetown,5.4112,100.3354,26.08,93,20,1.54,MY,1691532346
171,san felice circeo,41.2372,13.0942,21.99,99,3,4.36,IT,1691532595
172,new norfolk,-42.7826,147.0587,2.73,95,41,1.39,AU,1691532102
173,lesnoy,57.6198,63.0784,15.21,75,1,1.53,RU,1691532596
174,adh dhayd,25.2881,55.8816,32.4,52,76,2.85,AE,1691532596
175,cukai,4.25,103.4167,25.19,91,84,2.09,MY,1691532597
176,hola,51.5377,23.1902,13.1,72,44,2.89,PL,1691532597
177,hafar al-batin,28.4328,45.9708,32.13,11,0,4.09,SA,1691532599
178,kargasok,59.0556,80.8572,14.29,72,95,2.95,RU,1691532599
179,sept-iles,50.2001,-66.3821,15.59,94,100,3.58,CA,1691532600
180,san rafael,-34.6177,-68.3301,15.73,22,6,3.72,AR,1691532469
181,hawera,-39.5917,174.2833,8.79,75,87,2.51,NZ,1691532600
182,hawaiian paradise park,19.5933,-154.9731,28.74,72,20,4.12,US,1691532245
183,tanumah,27.1,44.1333,30.62,10,0,3.74,SA,1691532602
184,ust'-ilimsk,58.0006,102.6619,14.65,97,2,0.58,RU,1691532603
185,bamboo flat,11.7,92.7167,27.68,84,100,7.74,IN,1691532603
186,ulan bator,47.9077,106.8832,19.07,59,40,1.0,MN,1691532604
187,flin flon,54.7682,-101.865,11.62,75,100,4.28,CA,1691532605
188,huarmey,-10.0681,-78.1522,21.47,74,5,5.32,PE,1691532605
189,alice springs,-23.7,133.8833,8.75,66,0,2.57,AU,1691532361
190,holualoa,19.6228,-155.9522,29.91,60,0,6.69,US,1691532317
191,quelimane,-17.8786,36.8883,18.4,85,0,1.73,MZ,1691532607
192,porto seguro,-16.4497,-39.0647,24.29,83,40,3.6,BR,1691532607
193,karbala,32.616,44.0249,36.94,22,0,7.52,IQ,1691532608
194,benguela,-12.5763,13.4055,19.78,88,3,1.86,AO,1691532608
195,magadan,59.5667,150.8,11.41,58,11,0.94,RU,1691532609
196,santa cruz,-17.8,-63.1667,28.96,32,0,3.98,BO,1691532545
197,kruisfontein,-34.0033,24.7314,13.27,88,90,0.3,ZA,1691532360
198,mineral wells,32.8085,-98.1128,42.11,23,40,5.66,US,1691532452
199,port alfred,-33.5906,26.891,14.54,97,81,3.17,ZA,1691532348
200,thinadhoo,0.5333,72.9333,27.33,75,100,0.89,MV,1691532611
201,nishinoomote,30.7333,131.0,27.25,90,100,21.79,JP,1691532611
202,nuuk,64.1835,-51.7216,7.71,81,20,2.57,GL,1691532304
203,gargzdai,55.7128,21.4033,12.88,88,86,5.09,LT,1691532613
204,guayaramerin,-10.8368,-65.3614,33.16,32,65,1.1,BO,1691532613
205,babolsar,36.7025,52.6576,27.68,71,1,0.57,IR,1691532614
206,mazagao,-0.115,-51.2894,30.03,81,78,2.86,BR,1691532614
207,nadym,65.5333,72.5167,11.48,80,100,8.21,RU,1691532584
208,rio grande,-32.035,-52.0986,14.41,74,90,7.04,BR,1691532366
209,ngaoundere,7.3167,13.5833,18.12,98,100,1.53,CM,1691532616
210,fort bragg,35.139,-79.006,32.75,51,0,4.12,US,1691532359
211,coronel dorrego,-38.7187,-61.2873,9.04,47,62,5.4,AR,1691532617
212,qamdo,31.1667,97.2333,5.71,83,70,1.85,CN,1691532323
213,san patricio,28.017,-97.5169,38.4,48,0,8.97,US,1691532331
214,aksu,41.1231,80.2644,25.5,36,16,3.27,CN,1691532618
215,qala i naw,34.9874,63.1289,25.19,27,0,1.64,AF,1691532619
216,mana,5.6592,-53.7767,26.19,85,89,3.91,GF,1691532402
217,porlamar,10.958,-63.8491,29.07,76,6,4.34,VE,1691532620
218,dalbandin,28.8947,64.4101,29.78,14,0,3.07,PK,1691532620
219,paradip garh,20.3167,86.6167,27.76,74,100,3.78,IN,1691532372
220,jamestown,42.097,-79.2353,23.9,68,0,8.75,US,1691532385
221,vila franca do campo,37.7167,-25.4333,23.23,86,21,2.26,PT,1691532365
222,tangalle,6.024,80.7911,26.09,88,100,4.24,LK,1691532619
223,paraipaba,-3.4394,-39.1483,25.26,80,59,5.84,BR,1691532622
224,shizuishan,39.2333,106.7694,25.75,62,86,6.41,CN,1691532623
225,lorengau,-2.0226,147.2712,27.47,79,95,6.97,PG,1691532356
226,hithadhoo,-0.6,73.0833,27.36,75,100,2.26,MV,1691532412
227,konskie,51.1917,20.4061,13.39,88,74,2.82,PL,1691532624
228,mount pearl,47.5166,-52.7813,15.18,83,75,3.6,CA,1691532371
229,coquimbo,-29.9533,-71.3436,14.85,77,75,1.03,CL,1691532348
230,salalah,17.0151,54.0924,26.05,94,100,3.09,OM,1691532626
231,montecristo,8.2971,-74.4733,32.98,66,95,1.3,CO,1691532626
232,pursat,12.3333,103.6667,24.04,83,56,1.67,KH,1691532627
233,coari,-4.085,-63.1414,31.81,42,80,0.47,BR,1691532627
234,togur,58.3631,82.8265,10.58,88,49,2.57,RU,1691532628
235,choibalsan,48.0667,114.5,14.27,82,99,1.09,MN,1691532628
236,sarikei,2.1167,111.5167,22.84,99,79,0.4,MY,1691532628
237,oyo,7.85,3.9333,21.84,97,77,3.05,NG,1691532629
238,dauphin,51.1494,-100.0502,20.79,43,84,6.12,CA,1691532629
239,nakamura,32.9833,132.9333,26.62,96,100,6.74,JP,1691532630
240,ciutadella,40.0011,3.8414,24.45,64,0,3.1,ES,1691532630
241,pakse,15.1167,105.7833,23.12,96,58,0.83,LA,1691532631
242,liuhe,42.2401,125.7172,19.02,94,77,1.02,CN,1691532631
243,geraldton,-28.7667,114.6,11.23,93,75,1.54,AU,1691532333
244,phulbani,20.4667,84.2333,22.38,88,98,1.89,IN,1691532632
245,delijan,33.9905,50.6838,24.11,46,87,3.52,IR,1691532633
246,kapa'a,22.0752,-159.319,33.99,74,100,8.23,US,1691532385
247,heroica guaymas,27.9333,-110.9,41.05,53,20,10.29,MX,1691532634
248,ashland,40.8167,-82.2665,25.71,81,74,4.84,US,1691532502
249,al kharijah,25.4514,30.5464,34.87,28,1,7.6,EG,1691532635
250,springbok,-29.6643,17.8865,11.84,52,0,3.32,ZA,1691532636
251,al wajh,26.2455,36.4525,31.64,56,0,4.26,SA,1691532636
252,nuevitas,21.5453,-77.2644,30.36,75,82,6.07,CU,1691532637
253,longyearbyen,78.2186,15.6401,8.91,71,0,4.12,SJ,1691532344
254,kodiak,57.79,-152.4072,12.73,94,75,2.06,US,1691532247
255,bafq,31.6128,55.4107,30.65,20,77,5.98,IR,1691532638
256,inari,68.906,27.0288,20.11,92,2,1.29,FI,1691532638
257,bunyan,38.8463,35.8603,25.12,49,1,1.25,TR,1691532639
258,qui nhon,13.7667,109.2333,27.26,74,83,2.04,VN,1691532421
259,keren,15.7778,38.4581,20.97,87,90,1.38,ER,1691532640
260,vadso,70.0744,29.7487,21.49,94,0,2.57,NO,1691532640
261,jabat,7.75,168.9751,28.05,77,50,5.15,MH,1691532641
262,tharad,24.3961,71.6267,27.77,76,99,6.75,IN,1691532641
263,trinity beach,-16.7888,145.6968,20.56,83,40,4.63,AU,1691532642
264,swift current,50.2834,-107.8014,25.8,33,100,1.74,CA,1691532642
265,talnakh,69.4865,88.3972,13.45,62,94,1.03,RU,1691532343
266,fort mcmurray,56.7268,-111.381,22.04,37,31,3.15,CA,1691532643
267,bereznik,62.8551,42.7072,13.75,91,5,1.96,RU,1691532643
268,vilyuchinsk,52.9306,158.4028,14.15,55,53,2.03,RU,1691532346
269,hashtrud,37.4779,47.0508,20.47,49,0,1.34,IR,1691532644
270,pimentel,-6.8367,-79.9342,24.16,69,40,7.72,PE,1691532645
271,isna,25.2934,32.554,35.49,25,0,4.85,EG,1691532645
272,kone,-21.0595,164.8658,20.27,59,5,3.33,NC,1691532646
273,tavda,58.0425,65.2726,15.15,71,1,2.01,RU,1691532427
274,cabo san lucas,22.8909,-109.9124,37.01,62,34,5.78,MX,1691532145
275,lazaro cardenas,17.9583,-102.2,31.78,70,2,5.65,MX,1691532357
276,mandalgovi,45.7625,106.2708,19.17,54,34,6.58,MN,1691532648
277,altus,34.6381,-99.334,39.73,36,0,5.66,US,1691532648
278,coquimatlan,19.2,-103.8,33.65,47,9,2.7,MX,1691532649
279,siwa oasis,29.2041,25.5195,29.94,43,0,6.49,EG,1691532649
280,princeville,45.7668,-61.2985,20.94,81,20,5.66,CA,1691532166
281,whitehorse,60.7161,-135.0538,17.43,67,75,5.66,CA,1691532345
282,ilave,-16.0833,-69.6667,11.67,42,37,4.59,PE,1691532650
283,kiffa,16.6166,-11.4045,35.81,21,10,5.98,MR,1691532651
284,mugia,43.1041,-9.2179,20.51,70,0,2.6,ES,1691532651
285,lerwick,60.1545,-1.1494,10.0,79,100,13.8,GB,1691532092
286,remire-montjoly,4.9167,-52.2667,28.02,83,0,4.12,GF,1691532402
287,cabedelo,-6.9811,-34.8339,25.37,84,39,5.87,BR,1691532653
288,zalingei,12.9096,23.4741,21.95,86,53,1.52,SD,1691532653
289,puerto madero,14.7208,-92.4215,31.11,66,14,2.96,MX,1691532062
290,laizhou,37.1717,119.9214,21.99,83,0,1.57,CN,1691532654
291,keflavik,64.0049,-22.5624,12.95,87,20,4.12,IS,1691532354
292,susuman,62.7833,148.1667,8.58,55,95,0.26,RU,1691532347
293,yonggwang-up,40.0183,127.4547,21.87,92,84,0.17,KP,1691532656
294,leku,6.8667,38.45,15.64,87,99,1.24,ET,1691532656
295,port blair,11.6667,92.75,28.02,83,75,4.63,IN,1691532395
296,smithers,54.7804,-127.1743,19.12,72,97,1.04,CA,1691532527
297,smara,26.7384,-11.6719,23.63,64,0,7.72,EH,1691532658
298,bokhan,53.153,103.7714,15.94,96,100,1.42,RU,1691532658
299,floro,61.5996,5.0328,11.09,93,100,7.2,NO,1691532652
300,greymouth,-42.4667,171.2,5.89,78,69,2.75,NZ,1691532659
301,kill devil hills,36.0307,-75.676,31.01,55,40,3.09,US,1691532635
302,richland center,43.3347,-90.3868,29.9,37,84,2.86,US,1691532660
303,bahia honda,22.9036,-83.1592,31.46,68,28,2.82,CU,1691532660
304,tucuma,-0.1833,-50.05,26.67,81,85,4.11,BR,1691532438
305,krasnoturansk,54.3186,91.5639,15.06,67,82,1.75,RU,1691532661
306,alaghsas,17.0187,8.0168,27.42,63,93,4.99,NE,1691532646
307,gedo,9.0167,37.45,10.94,98,100,1.06,ET,1691532662
308,zaysan,47.4667,84.8667,17.41,64,23,1.52,KZ,1691532663
309,kingston,17.997,-76.7936,32.53,76,20,9.77,JM,1691532351
310,mili,6.0815,171.735,28.14,77,96,5.77,MH,1691532653
311,qaqortoq,60.7167,-46.0333,5.89,85,9,2.43,GL,1691532355
312,melioratorov,57.2107,65.6077,16.21,94,0,2.0,RU,1691532665
313,ciudad lazaro cardenas,17.9583,-102.2,31.78,70,2,5.65,MX,1691532357
314,taguatinga,-12.3857,-46.5711,29.31,24,0,1.07,BR,1691532666
315,homer,59.6425,-151.5483,17.09,80,75,4.63,US,1691532490
316,yuzhno-kurilsk,44.0306,145.8556,17.97,100,100,2.97,RU,1691532413
317,la'ie,21.6477,-157.9253,31.98,68,6,0.89,US,1691532350
318,st. paul,44.9444,-93.0933,29.87,42,20,5.14,US,1691532668
319,antofagasta,-23.65,-70.4,17.6,76,19,3.71,CL,1691532577
320,olavarria,-36.8927,-60.3225,6.39,69,92,3.36,AR,1691532431
321,cambridge,43.3601,-80.3127,26.01,58,100,1.34,CA,1691532558
322,arno,60.1167,18.6333,14.88,73,42,9.42,SE,1691532350
323,buala,-8.145,159.5921,27.03,81,95,3.97,SB,1691532416
324,ndele,8.4109,20.6473,21.01,96,90,1.27,CF,1691532670
325,fort st. john,56.2499,-120.8529,20.94,60,75,3.6,CA,1691532379
326,luanco,43.6152,-5.7934,20.71,89,0,5.08,ES,1691532671
327,tazovsky,67.4667,78.7,8.76,97,100,4.32,RU,1691532259
328,tommot,58.9564,126.2925,15.43,64,18,1.67,RU,1691532669
329,la libertad,-2.2333,-80.9,26.81,74,75,5.66,EC,1691532672
330,magnolia,33.2671,-93.2393,26.83,58,94,0.81,US,1691532673
331,arraial do cabo,-22.9661,-42.0278,21.92,83,100,4.63,BR,1691532349
332,inirida,3.8653,-67.9239,29.4,74,29,0.85,CO,1691532674
333,ramadi,33.4226,43.3058,36.77,18,0,7.29,IQ,1691532674
334,howrah,22.5892,88.3103,27.0,94,75,1.54,IN,1691532356
335,sanya,18.2431,109.505,27.2,85,66,2.39,CN,1691532675
336,mont-dore,-22.2833,166.5833,21.67,99,65,3.94,NC,1691532387
337,sabha,27.0377,14.4283,29.27,26,0,5.74,LY,1691532676
338,jabor,5.921,169.6434,27.84,72,100,1.5,MH,1691532677
339,kerikeri,-35.2268,173.9474,10.51,92,21,2.31,NZ,1691532543
340,jalalaqsi,3.3766,45.5996,23.27,81,55,8.31,SO,1691532678
341,kikwit,-5.041,18.8162,26.13,50,7,1.26,CD,1691532678
342,ugoofaaru,5.6667,73.0,27.28,81,100,5.31,MV,1691532679
343,buctzotz,21.2,-88.7833,34.06,51,25,6.54,MX,1691532679
344,moss point,30.4116,-88.5345,33.37,80,0,0.0,US,1691532680
345,kristiansund,63.1115,7.732,13.03,94,100,1.54,NO,1691532680
346,euclides da cunha,-10.5075,-39.0158,21.79,54,36,2.63,BR,1691532681
347,happy valley-goose bay,53.3168,-60.3315,18.17,68,40,5.66,CA,1691532391
348,peniche,39.3558,-9.3811,21.27,90,20,2.88,PT,1691532681
349,tazacorte,28.629,-17.9293,22.86,91,0,0.45,ES,1691532386
350,willow street,39.9793,-76.2764,28.88,53,0,11.32,US,1691532682
351,saint-pierre,-21.3393,55.4781,18.82,72,0,3.09,RE,1691532373
352,antonio enes,-16.2325,39.9086,21.24,73,3,3.4,MZ,1691532683
353,abdanan,32.9926,47.4198,30.98,15,30,1.18,IR,1691532684
354,nemuro,43.3236,145.575,18.33,100,100,5.59,JP,1691532148
355,flying fish cove,-10.4217,105.6791,23.82,88,100,5.66,CX,1691532427
356,vila do maio,15.1333,-23.2167,26.44,72,79,5.67,CV,1691532685
357,ghanzi,-21.5667,21.7833,14.32,31,5,3.8,BW,1691532685
358,harper,4.375,-7.7169,24.47,88,99,6.18,LR,1691532686
359,yarmouth,41.7057,-70.2286,26.03,89,75,5.66,US,1691532687
360,south hedland,-20.4089,118.5983,14.96,67,0,3.6,AU,1691532688
361,kingaroy,-26.5333,151.8333,11.37,77,5,3.28,AU,1691532688
362,beidaihehaibin,39.8222,119.5181,23.46,86,5,2.22,CN,1691532689
363,ville platte,30.688,-92.2715,39.06,27,99,2.92,US,1691532689
364,estevan,49.1334,-102.9842,26.23,25,42,6.98,CA,1691532690
365,pailon,-17.65,-62.75,29.04,34,0,2.61,BO,1691532690
366,podporozh'ye,60.9112,34.1706,18.34,98,95,1.19,RU,1691532691
367,santana do livramento,-30.8908,-55.5328,13.11,70,100,6.26,BR,1691532691
368,nueva gerona,21.8833,-82.8,32.33,61,7,3.52,CU,1691532692
369,manaquiri,-3.3167,-60.35,31.25,41,97,0.93,BR,1691532693
370,gisborne,-38.6533,178.0042,8.17,75,6,1.99,NZ,1691532693
371,salinopolis,-0.6136,-47.3561,26.44,85,48,5.83,BR,1691532405
372,constantia,44.1833,28.65,15.39,66,46,3.79,RO,1691532310
373,tofol,5.3248,163.0078,28.88,74,100,1.54,FM,1691532666
374,richards bay,-28.783,32.0377,17.17,86,0,1.96,ZA,1691532695
375,pudozh,61.8099,36.5345,18.83,74,2,3.47,RU,1691532695
376,inhambane,-23.865,35.3833,19.68,73,13,4.57,MZ,1691532348
377,tagta,41.6504,59.9164,26.81,41,0,1.37,TM,1691532696
378,thunder bay,48.4001,-89.3168,20.99,78,100,2.06,CA,1691532163
379,lionel town,17.8101,-77.2406,30.99,65,51,5.86,JM,1691532697
380,sucua,-2.4667,-78.1667,26.41,65,75,2.06,EC,1691532698
381,emmeloord,52.7108,5.7486,15.01,88,83,3.56,NL,1691532699
382,papao,-17.75,-149.55,24.82,90,99,6.69,PF,1691532410
383,ilshofen,49.17,9.9189,16.28,67,100,2.06,DE,1691532699
384,saint croix,17.7397,-64.7388,30.25,70,40,5.14,VI,1691532700
385,chabahar,25.2919,60.643,27.52,84,10,5.68,IR,1691532700
386,rocky mountain house,52.3668,-114.9188,19.03,83,100,2.58,CA,1691532701
387,vangaindrano,-23.35,47.6,19.31,93,87,2.05,MG,1691532702
388,arvayheer,46.2639,102.775,16.72,58,84,1.16,MN,1691532702
389,port augusta,-32.5,137.7667,8.41,49,0,4.22,AU,1691532377
390,saynshand,44.8824,110.1163,20.36,55,19,4.1,MN,1691532406
391,kisangani,0.5167,25.2,21.51,97,93,0.95,CD,1691532659
392,ipilan,8.8431,117.9033,26.13,84,28,1.71,PH,1691532704
393,huasahuasi,-11.3167,-75.6167,6.63,82,78,2.64,PE,1691532681
394,hays,30.0502,-98.0336,41.09,32,1,2.68,US,1691532704
395,selfoss,63.9331,-20.9971,11.69,83,79,0.76,IS,1691532421
396,waingapu,-9.6567,120.2641,22.34,86,47,4.77,ID,1691532383
397,chadron,42.8294,-102.9999,24.82,57,0,4.63,US,1691532706
398,mulanje,-16.0316,35.5,15.04,86,2,3.17,MW,1691532386
399,madera,37.1666,-119.8343,37.53,23,0,3.56,US,1691532386
400,oleksandrivka,48.9634,32.2349,14.64,95,100,5.0,UA,1691532707
401,pagar alam,-4.0167,103.2667,18.92,96,75,1.0,ID,1691532439
402,hammerfest,70.6634,23.6821,23.25,73,0,2.06,NO,1691532288
403,myeik,12.4333,98.6,26.09,89,100,3.71,MM,1691532709
404,essaouira,31.5125,-9.77,21.16,93,13,5.18,MA,1691532709
405,as sulayyil,20.4607,45.5779,33.14,9,7,3.05,SA,1691532358
406,cobija,-11.0267,-68.7692,33.02,34,49,0.93,BO,1691532710
407,aral,40.5156,81.2636,26.37,36,0,4.86,CN,1691532661
408,chipinge,-20.1883,32.6236,10.43,55,0,1.03,ZW,1691532711
409,xuddur,4.1213,43.8894,21.86,69,41,8.69,SO,1691532711
410,ammon,43.4696,-111.9666,22.28,43,40,3.6,US,1691532712
411,don luan,11.5333,106.9167,22.99,97,44,1.47,VN,1691532712
412,patong,7.8961,98.2966,30.01,72,93,4.58,TH,1691532713
413,ribeira brava,32.65,-17.0667,24.35,81,7,2.43,PT,1691532713
414,aasiaat,68.7098,-52.8699,4.52,70,50,1.84,GL,1691532389
415,nasirabad,26.3,74.7333,24.73,81,100,4.81,IN,1691532714
416,viechtach,49.0792,12.8847,16.25,76,100,1.85,DE,1691532714
417,ceelbuur,4.685,46.6176,23.5,76,51,9.31,SO,1691532715
418,tobelo,1.7284,128.0095,25.67,82,100,3.54,ID,1691532419
419,lethem,3.3803,-59.7968,28.16,76,97,0.5,GY,1691532716
420,hobyo,5.3505,48.5268,24.42,82,65,12.26,SO,1691532420
421,cadale,2.7603,46.3222,24.55,84,89,9.19,SO,1691532656
422,fereydun kenar,36.6864,52.5225,27.67,71,1,0.84,IR,1691532387
423,champerico,14.3,-91.9167,33.3,64,9,3.55,GT,1691532284
424,taltal,-25.4,-70.4833,17.55,71,71,2.39,CL,1691532503
425,villa dolores,-31.9459,-65.1896,13.37,28,11,2.08,AR,1691532718
426,bakanas,44.8081,76.2772,23.74,44,79,1.07,KZ,1691532719
427,kayangel,8.0823,134.7173,26.49,85,100,8.84,PW,1691532720
428,caleta de carquin,-11.0925,-77.6267,20.77,74,8,5.6,PE,1691532670
429,palikir - national government center,6.9248,158.1611,26.47,89,100,3.09,FM,1691532568
430,cozumel,20.5083,-86.9458,33.86,70,40,4.63,MX,1691532721
431,machico,32.7,-16.7667,24.35,81,40,0.51,PT,1691532722
432,tzimol,16.2667,-92.2667,24.84,56,33,2.49,MX,1691532722
433,santa ana,33.7456,-117.8678,36.08,54,75,7.72,US,1691532723
434,bubaque,11.2833,-15.8333,27.27,88,74,5.99,GW,1691532383
435,cidreira,-30.1811,-50.2056,16.15,68,100,8.42,BR,1691532286
436,pundong,-7.9522,110.3486,20.7,89,21,1.43,ID,1691532724
437,saudarkrokur,65.7461,-19.6394,8.25,72,53,4.03,IS,1691532664
438,achacachi,-16.05,-68.6833,10.58,56,10,3.07,BO,1691532725
439,rehoboth,-23.3167,17.0833,14.09,26,93,1.92,NA,1691532364
440,sao gabriel da cachoeira,-0.1303,-67.0892,28.54,72,76,1.68,BR,1691532414
441,nelson bay,-32.7167,152.15,12.22,96,10,1.79,AU,1691532451
442,tumbi,-5.0667,32.7333,20.85,38,3,2.66,TZ,1691532727
443,rio do sul,-27.2142,-49.6431,14.66,87,100,1.01,BR,1691532727
444,borgarnes,64.5383,-21.9206,8.78,74,48,3.12,IS,1691532567
445,east london,-33.0153,27.9116,17.42,76,100,5.15,ZA,1691532315
446,calingasta,-31.3308,-69.4078,17.37,20,24,0.6,AR,1691532729
447,brokopondo,4.75,-55.1667,29.16,71,90,3.17,SR,1691532729
448,catumbela,-12.4314,13.5472,19.75,89,1,2.32,AO,1691532730
449,tarawa,1.419,172.984,29.05,84,75,2.06,KI,1691532730
450,salekhard,66.53,66.6019,12.52,69,100,0.73,RU,1691532654
451,mingshui,36.7167,117.5,22.51,84,0,1.93,CN,1691532731
452,badger,64.8,-147.5333,20.63,89,100,3.09,US,1691532375
453,el porvenir,13.7617,-87.3458,24.63,50,100,1.26,HN,1691532643
454,nehe,48.4833,124.8333,15.69,96,100,1.83,CN,1691532732
455,pitiquito,30.7,-112.0833,39.32,25,11,6.94,MX,1691532733
456,beaconsfield,45.4334,-73.8659,23.25,82,87,3.54,CA,1691532733
457,las palmas,28.4204,-14.0131,22.44,73,20,5.66,ES,1691532316
458,tulun,54.5611,100.5792,13.55,97,100,0.35,RU,1691532734
459,boende,-0.2167,20.8667,22.8,84,71,0.42,CD,1691532734
460,vernon,50.2581,-119.2691,29.61,25,100,1.3,CA,1691532548
461,mossel bay,-34.1831,22.146,12.96,81,52,1.36,ZA,1691532353
462,masterton,-40.9597,175.6575,6.05,83,3,1.02,NZ,1691532427
463,kailua-kona,19.6406,-155.9956,31.98,60,0,6.69,US,1691532381
464,funafuti,-8.5243,179.1942,32.0,84,75,2.06,TV,1691532736
465,grand falls-windsor,48.9332,-55.6649,15.28,77,100,2.03,CA,1691532424
466,los llanos de aridane,28.6585,-17.9182,21.18,91,0,0.45,ES,1691532737
467,mejit,10.2753,170.8646,28.27,73,85,6.37,MH,1691532400
468,yatou,37.15,122.3833,24.21,91,25,3.32,CN,1691532739
469,booue,-0.0921,11.9385,25.22,68,72,1.54,GA,1691532740
470,shingu,33.7333,135.9833,26.54,94,84,4.3,JP,1691532272
471,rongelap,11.1635,166.8941,28.38,74,45,6.49,MH,1691532248
472,santiago de cao,-7.9589,-79.2392,23.07,78,87,4.63,PE,1691532741
473,kilindoni,-7.9139,39.6668,24.5,79,4,7.02,TZ,1691532404
474,egilsstadir,65.2653,-14.3948,7.95,76,20,5.14,IS,1691532271
475,chegdomyn,51.1167,133.0167,17.97,56,100,0.49,RU,1691532742
476,ongjin,37.9347,125.3619,24.15,80,2,2.62,KP,1691532679
477,barra de santo antonio,-9.4047,-35.5072,23.6,84,17,3.9,BR,1691532675
478,kodyma,48.0988,29.1246,12.92,86,30,1.32,UA,1691532744
479,dampit,-8.2116,112.7493,17.37,93,34,1.74,ID,1691532744
480,fale old settlement,-9.3852,-171.2468,27.95,76,94,5.41,TK,1691532668
481,paita,-5.0892,-81.1144,22.57,78,90,7.02,PE,1691532529
482,chernyshevskiy,63.0128,112.4714,16.66,76,45,2.03,RU,1691532745
483,magistral'nyy,56.1725,107.4458,16.44,82,99,0.88,RU,1691532746
484,morondava,-20.2833,44.2833,18.88,74,0,2.54,MG,1691532746
485,greenville,35.6127,-77.3663,32.01,61,100,1.54,US,1691532350
486,babruysk,53.15,29.2333,12.66,80,90,2.52,BY,1691532747
487,umuarama,-23.7664,-53.325,22.03,64,12,6.91,BR,1691532676
488,coihueco,-36.6167,-71.8333,11.41,87,75,1.03,CL,1691532748
489,mar del plata,-38.0023,-57.5575,10.61,74,0,5.66,AR,1691532379
490,osh,40.5151,72.8083,19.36,68,40,3.0,KG,1691532749
491,pacific grove,36.6177,-121.9166,23.55,79,0,7.72,US,1691532318
492,zhosaly,45.4878,64.0781,29.43,33,43,3.51,KZ,1691532750
493,alo,7.4178,6.7371,23.07,95,96,1.71,NG,1691532596
494,bodo,67.28,14.405,21.54,72,20,9.26,NO,1691532417
495,toliara,-23.35,43.6667,20.35,85,54,2.51,MG,1691532752
496,makokou,0.5738,12.8642,21.41,95,91,0.98,GA,1691532659
497,kapit,2.0167,112.9333,22.71,100,70,0.59,MY,1691532494
498,hasaki,35.7333,140.8333,27.39,93,100,5.84,JP,1691532373
499,vedene,43.9833,4.9,22.09,50,0,3.09,FR,1691532753
500,itaituba,-4.2761,-55.9836,31.68,43,81,0.31,BR,1691532585
501,outokumpu,62.7269,29.0159,16.94,88,5,1.59,FI,1691532754
502,bengkulu,-3.8004,102.2655,23.52,93,42,2.42,ID,1691532755
503,bu'aale,1.0833,42.5833,22.73,84,14,4.47,SO,1691532756
504,errachidia,31.9275,-4.4285,36.03,13,40,5.66,MA,1691532756
505,muroto-misakicho,33.2833,134.15,27.83,89,97,10.84,JP,1691532756
506,sovetskaya gavan',48.9723,140.2878,15.43,88,99,0.72,RU,1691532400
507,poronaysk,49.2167,143.1167,14.41,87,100,1.25,RU,1691532379
508,ad dawadimi,24.5077,44.3924,29.52,10,2,3.69,SA,1691532758
509,redkino,56.6475,36.2967,15.21,91,6,2.09,RU,1691532758
510,wynyard,-41.0,145.7167,6.66,82,86,1.78,AU,1691532759
511,algona,43.07,-94.233,27.85,50,20,2.57,US,1691532759
512,jeddah,21.5169,39.2192,34.92,24,0,3.6,SA,1691532759
513,mwinilunga,-11.7358,24.4293,16.52,41,18,1.58,ZM,1691532760
514,dhidhdhoo,6.8833,73.1,27.72,78,100,5.76,MV,1691532761
515,faliraki,36.3398,28.1994,28.38,71,0,6.17,GR,1691532761
516,malango,-2.9627,119.9001,17.26,97,33,0.99,ID,1691532406
517,chibougamau,49.9168,-74.3659,13.79,94,100,4.12,CA,1691532762
518,aripuana,-9.1667,-60.6333,30.86,40,36,1.3,BR,1691532763
519,smirnovo,54.5125,69.4222,19.44,55,100,3.01,KZ,1691532763
520,palmer,42.1584,-72.3287,25.23,76,75,2.57,US,1691532764
521,zhuanghe,39.7008,122.9911,23.31,84,17,2.05,CN,1691532764
522,banda aceh,5.5577,95.3222,27.02,76,100,3.49,ID,1691532351
523,kargopol',61.5071,38.9456,16.38,85,0,2.75,RU,1691532765
524,acapulco de juarez,16.8634,-99.8901,31.9,70,20,5.14,MX,1691532395
525,summerland,49.5998,-119.6691,29.03,33,99,2.15,CA,1691532766
526,trapani,37.8333,12.6667,21.82,73,0,2.6,IT,1691532766
527,camacupa,-12.0167,17.4833,17.21,30,0,1.03,AO,1691532766
528,luganville,-15.5333,167.1667,22.48,94,100,4.57,VU,1691532767
529,malanje,-9.5402,16.341,21.35,41,7,2.36,AO,1691532767
530,choyr,46.3611,108.3611,16.72,67,51,4.77,MN,1691532676
531,siyabuswa,-25.1132,29.0445,14.24,28,0,2.61,ZA,1691532768
532,ad dilam,23.9915,47.1627,35.23,11,6,2.22,SA,1691532348
533,koryazhma,61.3143,47.1691,13.86,94,66,1.67,RU,1691532769
534,cancun,21.1743,-86.8466,32.81,63,2,3.78,MX,1691532005
535,severo-yeniseyskiy,60.3725,93.0408,9.64,97,66,1.89,RU,1691532770
536,saint-philippe,-21.3585,55.7679,18.77,78,37,3.28,RE,1691532116
537,praia da vitoria,38.7333,-27.0667,24.14,83,20,5.94,PT,1691532365
538,wewak,-3.5534,143.6268,25.93,86,45,2.61,PG,1691532687
539,kamloops,50.6665,-120.3192,27.55,42,75,2.57,CA,1691532324
540,humaita,-7.5061,-63.0208,32.26,42,48,1.48,BR,1691532288
541,huilong,31.8111,121.655,28.85,91,4,4.21,CN,1691532772
542,istgah-e rah ahan-e garmsar,35.2346,52.3094,26.84,41,96,0.95,IR,1691532773
543,tolanaro,-25.0319,46.9987,18.94,93,40,3.82,MG,1691532416
544,hami,42.8,93.45,29.26,35,100,6.51,CN,1691532392
545,guerrero negro,27.9769,-114.0611,29.15,60,91,7.03,MX,1691532689
546,mazamari,-11.3258,-74.5308,26.97,69,71,0.51,PE,1691532642
547,port macquarie,-31.4333,152.9167,10.5,76,3,2.34,AU,1691532667
548,nuku'alofa,-21.1333,-175.2,25.19,88,75,1.03,TO,1691532661
549,al ghayzah,16.2079,52.176,25.48,90,100,4.63,YE,1691532669
550,andergrove,-21.0833,149.1833,19.8,83,12,6.83,AU,1691532652
551,al burayqah,30.4062,19.5739,26.64,67,0,7.97,LY,1691532777
552,freetown,8.484,-13.2299,25.4,89,100,4.33,SL,1691532672
553,campos belos,-13.0367,-46.7717,26.73,21,1,1.64,BR,1691532562
554,zuromin,53.0661,19.9089,11.71,84,58,5.08,PL,1691532778
555,kyaikkami,16.08,97.5675,26.31,85,100,5.03,MM,1691532778
556,punta del este,-34.9667,-54.95,11.6,84,0,5.66,UY,1691532779
557,kananga,-5.8958,22.4178,24.01,45,42,1.21,CD,1691532662
558,levuka,50.1834,-105.4011,25.34,29,76,4.3,CA,1691532780
559,isiro,2.7739,27.616,18.69,98,98,0.16,CD,1691532780
560,acarau,-2.8856,-40.12,25.9,82,41,8.71,BR,1691532381
561,urzhar,47.093,81.6294,19.22,72,70,1.89,KZ,1691532354
562,yulinshi,38.2906,109.7494,22.97,60,77,2.62,CN,1691532781
563,kavaratti,10.5669,72.642,27.98,75,100,7.7,IN,1691532540
564,west fargo,46.875,-96.9004,30.0,48,75,7.2,US,1691532297
565,amal,59.051,12.7049,13.73,89,100,8.26,SE,1691532783
566,markovo,57.3206,107.0881,17.84,84,100,0.53,RU,1691532783
